City_ID,City,Country,Lat,Lng,Max Temp,Humidity,Cloudiness,Wind Speed,Current Weather
0,New Norfolk,AU,-42.7826,147.0587,60.93,83,97,1.01,overcast clouds
1,Hanamaki,JP,39.3833,141.1167,45.54,94,95,1.92,overcast clouds
2,Rio De Janeiro,BR,-22.9028,-43.2075,84.0,72,0,4.61,clear sky
3,Muros,ES,42.7762,-9.0603,67.08,54,7,16.49,clear sky
4,Abha,SA,18.2164,42.5053,66.45,68,40,11.5,light rain
5,Pangnirtung,CA,66.1451,-65.7125,28.4,80,100,2.3,light snow
6,Port Alfred,ZA,-33.5906,26.891,59.18,89,5,1.01,clear sky
7,Atuona,PF,-9.8,-139.0333,78.67,77,58,13.71,broken clouds
8,Rikitea,PF,-23.1203,-134.9692,76.41,72,34,5.97,scattered clouds
9,Namibe,AO,-15.1961,12.1522,74.14,76,9,15.55,clear sky
10,Padang,ID,-0.9492,100.3543,75.25,89,97,2.68,overcast clouds
11,Nouadhibou,MR,20.931,-17.0347,71.58,73,0,21.85,dust
12,Hermanus,ZA,-34.4187,19.2345,62.8,84,0,10.74,clear sky
13,Ancud,CL,-41.8697,-73.8203,55.56,79,72,3.89,broken clouds
14,Albany,US,42.6001,-73.9662,66.16,31,13,1.99,few clouds
15,Chokurdakh,RU,70.6333,147.9167,15.3,96,38,7.81,scattered clouds
16,Pevek,RU,69.7008,170.3133,-3.33,92,49,5.53,scattered clouds
17,Port Blair,IN,11.6667,92.75,83.57,73,57,4.05,broken clouds
18,Airai,TL,-8.9266,125.4092,59.22,89,64,3.51,broken clouds
19,Half Moon Bay,US,37.4636,-122.4286,65.14,61,0,3.44,clear sky
20,Bluff,NZ,-46.6,168.3333,44.8,91,20,8.75,few clouds
21,Asau,RO,46.4333,26.4,59.92,71,89,2.91,overcast clouds
22,Zermatt,CH,46.0213,7.7491,54.77,72,96,4.41,overcast clouds
23,Yellowknife,CA,62.456,-114.3525,37.56,60,14,11.99,few clouds
24,Klaksvik,FO,62.2266,-6.589,49.12,82,77,11.48,broken clouds
25,Puerto Ayora,EC,-0.7393,-90.3518,80.56,80,69,7.61,broken clouds
26,Gizo,SB,-8.103,156.8419,81.72,76,100,6.26,overcast clouds
27,Vaini,TO,-21.2,-175.2,78.96,94,75,9.22,broken clouds
28,Fukue,JP,32.6881,128.8419,60.58,50,100,17.81,overcast clouds
29,Vostok,RU,46.4856,135.8833,28.49,88,100,2.55,overcast clouds
30,Tuatapere,NZ,-46.1333,167.6833,48.06,93,37,5.55,scattered clouds
31,Valparaiso,CL,-33.0393,-71.6273,70.03,58,0,11.5,clear sky
32,Praia,CV,14.9215,-23.5087,82.94,51,20,16.11,few clouds
33,Punta Arenas,CL,-53.15,-70.9167,48.11,87,85,6.11,overcast clouds
34,Avarua,CK,-21.2078,-159.775,71.65,100,100,1.14,overcast clouds
35,Salalah,OM,17.0151,54.0924,86.09,79,20,5.75,few clouds
36,Katsuura,JP,35.1333,140.3,53.82,88,100,16.78,light rain
37,Ushuaia,AR,-54.8,-68.3,46.06,76,75,20.71,broken clouds
38,Mar Del Plata,AR,-38.0023,-57.5575,55.42,69,75,14.0,light rain
39,Sitka,US,57.0531,-135.33,48.09,61,100,17.27,overcast clouds
40,Longyearbyen,SJ,78.2186,15.6401,15.64,57,75,8.05,broken clouds
41,Coahuayana,MX,18.7333,-103.6833,89.33,25,100,6.22,overcast clouds
42,Srandakan,ID,-7.9386,110.2506,78.17,89,91,5.12,overcast clouds
43,Myingyan,MM,21.4667,95.3833,93.42,39,10,2.95,clear sky
44,Butaritari,KI,3.0707,172.7902,80.87,79,95,11.5,light rain
45,Dolores,AR,-36.3132,-57.6792,61.18,49,0,11.48,clear sky
46,Khatanga,RU,71.9667,102.5,17.01,95,98,11.68,overcast clouds
47,Jacareacanga,BR,-6.2222,-57.7528,90.1,53,7,2.98,clear sky
48,Hobart,AU,-42.8794,147.3294,60.26,77,91,5.75,overcast clouds
49,Pavlogradka,RU,54.2024,73.5592,51.94,57,97,11.32,overcast clouds
50,Tutoia,BR,-2.7619,-42.2744,81.72,83,88,4.12,overcast clouds
51,Hilo,US,19.7297,-155.09,73.27,94,100,13.8,moderate rain
52,Culebra,PR,18.303,-65.301,82.44,93,100,8.99,overcast clouds
53,Aksarka,RU,66.5606,67.7975,12.02,90,29,5.95,scattered clouds
54,Jurado,CO,7.1053,-77.7641,83.19,79,97,8.97,light rain
55,Ponta Delgada,PT,37.7333,-25.6667,65.12,77,75,4.61,broken clouds
56,Tuktoyaktuk,CA,69.4541,-133.0374,28.71,93,99,12.17,overcast clouds
57,Glendive,US,47.1053,-104.7125,55.49,44,0,16.11,clear sky
58,Iwaki,JP,37.05,140.8833,49.01,88,86,3.0,overcast clouds
59,Busselton,AU,-33.65,115.3333,57.2,84,9,2.64,clear sky
60,Barrow,US,71.2906,-156.7887,21.22,86,100,13.8,overcast clouds
61,Kodiak,US,57.79,-152.4072,40.51,81,100,17.27,light rain
62,Cidreira,BR,-30.1811,-50.2056,64.2,86,100,7.4,overcast clouds
63,Hamilton,US,39.1834,-84.5333,75.29,47,0,20.71,clear sky
64,Riberalta,BO,-10.9833,-66.1,89.8,58,40,5.75,scattered clouds
65,Satipo,PE,-11.2522,-74.6386,85.05,55,51,3.24,broken clouds
66,Bengkulu,ID,-3.8004,102.2655,76.75,90,100,4.03,overcast clouds
67,Sobradinho,BR,-12.8333,-39.1,80.4,65,100,6.06,overcast clouds
68,Petropavlovsk-Kamchatskiy,RU,53.0452,158.6483,30.79,86,75,0.0,broken clouds
69,Honningsvag,NO,70.9821,25.9704,28.15,80,75,8.05,broken clouds
70,Grinnell,US,41.743,-92.7224,48.18,80,100,19.57,overcast clouds
71,Zyryanovsk,KZ,49.7386,84.2719,57.42,46,66,3.98,broken clouds
72,Oranjestad,AW,12.524,-70.027,80.47,88,100,22.3,overcast clouds
73,Kapaa,US,22.0752,-159.319,74.12,85,20,21.85,few clouds
74,Talcahuano,CL,-36.7167,-73.1167,58.68,67,0,14.97,clear sky
75,Necochea,AR,-38.5473,-58.7368,53.8,65,95,12.86,overcast clouds
76,Bredasdorp,ZA,-34.5322,20.0403,58.39,90,0,5.26,clear sky
77,Caravelas,BR,-17.7125,-39.2481,83.14,58,0,8.21,clear sky
78,Oranjemund,NA,-28.55,16.4333,64.29,48,0,12.95,clear sky
79,Victoria,HK,22.2855,114.1577,65.25,92,100,5.99,moderate rain
80,Khor,RU,47.8861,134.9464,36.82,84,100,6.42,overcast clouds
81,Mataura,NZ,-46.1927,168.8643,44.47,98,26,2.57,scattered clouds
82,Hofn,IS,64.2539,-15.2082,39.7,86,51,13.18,broken clouds
83,Baykit,RU,61.67,96.37,20.75,93,5,2.71,clear sky
84,Puerto Madero,MX,14.7208,-92.4215,89.8,62,75,0.0,broken clouds
85,Los Llanos De Aridane,ES,28.6585,-17.9182,68.13,73,0,13.8,clear sky
86,Lubana,LV,56.9,26.7167,46.98,67,100,2.91,overcast clouds
87,Coihaique,CL,-45.5752,-72.0662,54.21,71,75,0.0,broken clouds
88,Komsomolskiy,UZ,40.4272,71.7189,75.92,33,99,9.22,overcast clouds
89,Saint-Francois,FR,46.4154,3.9054,63.84,45,0,6.91,clear sky
90,Sinnamary,GF,5.3833,-52.95,82.81,69,54,13.29,broken clouds
91,Tura,IN,25.5198,90.2201,70.38,96,44,5.53,scattered clouds
92,Aklavik,CA,68.2191,-135.0107,39.2,65,20,10.36,few clouds
93,Ribeira Grande,PT,38.5167,-28.7,64.8,82,75,4.61,broken clouds
94,Banda Aceh,ID,5.5577,95.3222,81.03,80,97,14.61,overcast clouds
95,Irtyshskiy,RU,58.3333,68.1333,41.38,55,94,6.96,overcast clouds
96,Atambua,ID,-9.1061,124.8925,72.52,89,56,5.03,broken clouds
97,Kandrian,PG,-6.2167,149.55,77.09,87,28,3.94,light rain
98,Nara,JP,34.6851,135.8049,50.5,68,93,3.24,overcast clouds
99,Portland,US,45.5234,-122.6762,56.44,85,100,1.01,overcast clouds
100,Tarimoro,MX,20.2833,-100.75,83.59,15,32,3.24,scattered clouds
101,Kaitangata,NZ,-46.2817,169.8464,48.94,95,23,4.23,few clouds
102,Labrea,BR,-7.2586,-64.7981,94.42,44,32,1.32,scattered clouds
103,Port Hedland,AU,-20.3167,118.5667,77.05,61,91,5.75,overcast clouds
104,Noumea,NC,-22.2763,166.4572,77.0,99,81,11.72,broken clouds
105,Vuktyl,RU,63.8567,57.3094,28.33,86,91,1.36,overcast clouds
106,Nanortalik,GL,60.1432,-45.2371,38.66,85,98,8.3,overcast clouds
107,Mehamn,NO,71.0357,27.8492,28.35,74,75,3.44,broken clouds
108,San Ramon,US,37.7799,-121.978,64.92,60,0,9.22,clear sky
109,Presidencia Roque Saenz Pena,AR,-26.7852,-60.4388,58.03,96,98,5.79,overcast clouds
110,Jibuti,DJ,11.5,42.5,81.5,62,12,10.74,few clouds
111,Melfort,CA,52.8667,-104.6177,35.73,80,100,8.05,overcast clouds
112,Prince Rupert,CA,54.3161,-130.3201,48.29,76,100,20.71,light rain
113,Mahebourg,MU,-20.4081,57.7,75.49,88,75,3.44,broken clouds
114,Road Town,VG,18.4167,-64.6167,80.69,89,40,9.22,scattered clouds
115,Cockburn Town,TC,21.4612,-71.1419,80.56,65,40,19.57,scattered clouds
116,Hualmay,PE,-11.0964,-77.6139,70.03,75,18,7.65,few clouds
117,Buchanan,LR,5.8808,-10.0467,84.33,73,99,7.11,overcast clouds
118,Cardoso,BR,-20.0819,-49.9142,90.21,24,2,6.4,clear sky
119,Lebu,CL,-37.6167,-73.65,55.36,74,100,15.39,overcast clouds
120,Torbay,CA,47.6666,-52.7314,54.88,79,75,5.01,broken clouds
121,Paramonga,PE,-10.6667,-77.8333,69.6,77,29,8.03,scattered clouds
122,Karema,TZ,-6.8205,30.4389,73.22,81,46,4.59,scattered clouds
123,Cape Town,ZA,-33.9258,18.4232,64.11,73,0,13.0,clear sky
124,Talnakh,RU,69.4865,88.3972,20.21,91,100,7.23,overcast clouds
125,Manbij,SY,36.5281,37.9549,61.81,86,66,17.85,broken clouds
126,Esperance,AU,-33.8667,121.9,59.45,68,0,4.54,clear sky
127,Mogadishu,SO,2.0371,45.3438,83.88,75,87,13.62,overcast clouds
128,Ust-Tsilma,RU,65.441,52.1498,27.95,96,99,3.98,light snow
129,Urupes,BR,-21.2017,-49.29,90.73,32,9,7.07,clear sky
130,Campo Verde,BR,-20.4167,-54.0667,86.68,35,41,8.48,scattered clouds
131,Jamestown,US,42.097,-79.2353,54.72,89,100,14.97,moderate rain
132,Alyangula,AU,-13.8483,136.4192,79.11,68,54,9.64,broken clouds
133,Okhotsk,RU,59.3833,143.3,31.93,90,43,2.48,scattered clouds
134,Muisne,EC,0.6,-80.0333,80.98,71,98,8.05,overcast clouds
135,Cap Malheureux,MU,-19.9842,57.6142,75.47,81,6,1.99,clear sky
136,Chapaevsk,RU,52.9813,49.7112,40.98,53,22,7.2,few clouds
137,Yumen,CN,40.2833,97.2,52.18,15,0,10.0,clear sky
138,Tasiilaq,GL,65.6145,-37.6368,32.16,64,96,11.01,overcast clouds
139,Arcata,US,40.8665,-124.0828,59.2,73,0,5.75,clear sky
140,Kawhia,NZ,-38.0651,174.8183,54.52,92,44,5.32,scattered clouds
141,Barcelos,PT,41.5388,-8.6151,62.85,66,29,12.68,scattered clouds
142,Westport,US,41.1415,-73.3579,72.28,39,0,9.22,clear sky
143,Beira,MZ,-19.8436,34.8389,78.89,73,20,9.22,few clouds
144,Lorengau,PG,-2.0226,147.2712,81.25,76,8,4.29,clear sky
145,San Quintin,MX,30.4833,-115.95,64.33,70,29,8.23,scattered clouds
146,Saint Anthony,US,45.0205,-93.218,47.35,89,100,12.66,overcast clouds
147,Dikson,RU,73.5069,80.5464,9.79,98,57,10.67,broken clouds
148,Kieta,PG,-6.2167,155.6333,78.33,85,94,2.35,overcast clouds
149,Abnub,EG,27.2696,31.1511,85.82,15,2,7.87,clear sky
150,Tiksi,RU,71.6872,128.8694,16.74,91,88,13.89,overcast clouds
151,Cabo San Lucas,MX,22.8909,-109.9124,83.5,57,84,3.0,broken clouds
152,Castro,BR,-24.7911,-50.0119,72.93,65,19,8.88,few clouds
153,Namatanai,PG,-3.6667,152.4333,78.93,81,59,2.01,broken clouds
154,Meulaboh,ID,4.1363,96.1285,77.68,87,100,3.31,overcast clouds
155,Plettenberg Bay,ZA,-34.0527,23.3716,58.59,85,2,0.83,clear sky
156,Lloydminster,CA,53.2835,-110.0016,46.62,57,100,14.97,overcast clouds
157,Cayenne,GF,4.9333,-52.3333,86.04,42,0,17.27,clear sky
158,Mabaruma,GY,8.2,-59.7833,87.08,53,85,8.34,overcast clouds
159,Bambous Virieux,MU,-20.3428,57.7575,75.45,88,75,3.44,broken clouds
160,Hami,CN,42.8,93.45,65.57,10,6,7.02,clear sky
161,Puerto Leguizamo,CO,-0.1934,-74.7819,88.68,50,60,1.41,broken clouds
162,Port Elizabeth,ZA,-33.918,25.5701,64.31,85,20,12.66,few clouds
163,Maua,BR,-23.6678,-46.4614,85.06,47,43,10.45,scattered clouds
164,Byron Bay,AU,-28.65,153.6167,64.29,79,95,12.93,overcast clouds
165,Mount Gambier,AU,-37.8333,140.7667,58.91,94,100,9.22,overcast clouds
166,Sao Miguel Do Tapuio,BR,-5.5036,-41.3233,92.34,37,39,6.22,scattered clouds
167,Ishigaki,JP,24.3448,124.1572,68.13,94,100,11.5,light rain
168,Salcininkai,LT,54.3,25.3833,53.69,68,100,3.85,overcast clouds
169,Grand Forks,US,47.9417,-97.4337,39.13,87,100,26.46,overcast clouds
170,Iskateley,RU,67.6803,53.1512,18.82,92,99,8.97,overcast clouds
171,Port Lincoln,AU,-34.7333,135.8667,59.07,89,0,8.23,clear sky
172,Oksfjord,NO,70.2396,22.3479,37.99,85,100,6.11,overcast clouds
173,Kayerkan,RU,69.3497,87.7602,19.53,85,99,11.74,overcast clouds
174,Georgetown,MY,5.4112,100.3354,84.13,84,20,0.0,few clouds
175,Bilma,NE,18.6853,12.9164,104.02,10,60,5.84,broken clouds
176,Yulara,AU,-25.2406,130.9889,60.64,63,40,8.05,scattered clouds
177,Turukhansk,RU,65.8167,87.9833,29.77,82,100,16.93,overcast clouds
178,Yeniseysk,RU,58.4497,92.1703,35.29,80,100,8.57,overcast clouds
179,Inuvik,CA,68.3499,-133.7218,43.66,52,0,8.05,clear sky
180,Leshukonskoye,RU,64.8989,45.7622,24.94,90,52,3.69,broken clouds
181,Guerrero Negro,MX,27.9769,-114.0611,66.27,62,8,10.67,clear sky
182,Arraial Do Cabo,BR,-22.9661,-42.0278,85.96,65,0,16.11,clear sky
183,Vardo,NO,70.3705,31.1107,21.18,79,40,6.91,scattered clouds
184,Dingle,PH,10.9995,122.6711,77.2,81,97,5.73,overcast clouds
185,Del Rio,US,29.3627,-100.8968,77.02,81,100,17.27,overcast clouds
186,Tilichiki,RU,60.4667,166.1,10.29,96,46,7.61,scattered clouds
187,Inverell,AU,-29.7833,151.1167,54.66,92,1,4.97,clear sky
188,Nacala,MZ,-14.5428,40.6728,74.77,78,8,9.53,clear sky
189,Sobolevo,RU,54.4299,31.8996,45.82,71,96,4.56,overcast clouds
190,Karratha,AU,-20.7377,116.8463,82.17,50,98,7.49,overcast clouds
191,Margate,GB,51.3813,1.3862,55.69,67,100,3.0,overcast clouds
192,Baculin,PH,7.4525,126.5842,77.85,88,98,6.64,overcast clouds
193,Muana,BR,-1.5283,-49.2167,78.73,91,97,3.8,overcast clouds
194,Slavonski Brod,HR,45.1603,18.0156,60.53,79,69,10.11,broken clouds
195,Riyadh,SA,24.6877,46.7219,91.54,12,0,11.1,clear sky
196,Yarkovo,RU,57.4028,67.0786,41.23,57,91,8.14,overcast clouds
197,Imari,JP,33.2667,129.8833,58.78,66,100,2.46,overcast clouds
198,Lagoa,PT,39.05,-27.9833,61.97,76,24,1.74,few clouds
199,Bose,IT,45.4612,8.0137,67.84,45,5,4.38,clear sky
200,Souillac,MU,-20.5167,57.5167,75.58,88,75,3.44,broken clouds
201,Constitucion,CL,-35.3333,-72.4167,59.27,58,1,13.31,clear sky
202,Kununurra,AU,-15.7667,128.7333,85.98,35,9,10.36,clear sky
203,Kruisfontein,ZA,-34.0033,24.7314,58.89,91,3,3.98,clear sky
204,Xichang,CN,27.8964,102.2634,48.4,84,100,4.25,overcast clouds
205,Sao Filipe,CV,14.8961,-24.4956,75.7,71,0,10.02,clear sky
206,Sayyan,YE,15.1718,44.3244,68.54,32,79,11.81,broken clouds
207,Guatire,VE,10.4762,-66.5427,91.04,42,24,5.44,few clouds
208,Asfi,MA,32.2994,-9.2372,68.02,66,2,17.31,clear sky
209,General Pico,AR,-35.6566,-63.7568,65.79,30,0,10.27,clear sky
210,Pokhara,NP,28.2333,83.9833,68.22,67,100,5.19,overcast clouds
211,Gamba,GA,-2.65,10.0,79.03,86,93,7.47,moderate rain
212,Denpasar,ID,-8.65,115.2167,83.86,94,20,9.22,few clouds
213,Norman Wells,CA,65.282,-126.8329,44.64,49,40,19.57,scattered clouds
214,Marsh Harbour,BS,26.5412,-77.0636,75.52,73,40,17.22,light rain
215,Thinadhoo,MV,0.5333,72.9333,85.96,70,66,16.22,broken clouds
216,Gat,IL,31.61,34.7642,67.41,100,2,4.03,clear sky
217,Nassjo,SE,57.6531,14.6968,52.72,35,78,2.35,broken clouds
218,Pedasi,PA,7.5333,-80.0333,82.62,75,98,3.89,overcast clouds
219,Bethel,US,41.3712,-73.414,70.18,35,0,4.61,clear sky
220,Biak,ID,-0.9131,122.8766,76.73,87,80,5.39,broken clouds
221,Ihosy,MG,-22.4,46.1167,62.71,77,0,3.76,clear sky
222,Krasnovishersk,RU,60.4078,57.082,24.31,96,93,2.19,overcast clouds
223,Bagan,RU,54.1001,77.6646,57.87,63,100,10.38,overcast clouds
224,Severo-Kurilsk,RU,50.6789,156.125,33.26,86,75,11.16,broken clouds
225,Viedma,AR,-40.8135,-62.9967,57.42,49,86,5.97,overcast clouds
226,Uchiza,PE,-8.4592,-76.4633,84.87,57,46,3.11,scattered clouds
227,Geraldton,AU,-28.7667,114.6,55.81,76,0,6.91,clear sky
228,Fairbanks,US,64.8378,-147.7164,47.25,54,0,10.36,clear sky
229,Porto Seguro,BR,-16.4497,-39.0647,82.92,69,40,6.91,scattered clouds
230,Aitape,PG,-3.1374,142.3475,77.97,88,84,4.74,light rain
231,Camalu,MX,30.85,-116.0667,64.81,69,9,7.36,clear sky
232,Mareeba,AU,-17.0,145.4333,68.72,94,83,1.59,broken clouds
233,Nome,US,64.5011,-165.4064,37.47,70,0,19.57,clear sky
234,Flin Flon,CA,54.7682,-101.865,31.84,80,100,10.36,mist
235,Kvarkeno,RU,52.0833,59.725,51.69,54,83,13.91,broken clouds
236,Hithadhoo,MV,-0.6,73.0833,85.84,71,76,15.43,heavy intensity rain
237,Adre,TD,13.4667,22.2,93.87,7,100,5.39,overcast clouds
238,Provideniya,RU,64.3833,-173.3,23.86,76,88,11.7,overcast clouds
239,Almeirim,BR,-1.5233,-52.5817,82.47,79,66,4.63,broken clouds
240,Uige,AO,-7.6087,15.0613,70.05,77,96,3.38,overcast clouds
241,Berlevag,NO,70.8578,29.0864,28.4,67,94,3.74,overcast clouds
242,Henties Bay,NA,-22.116,14.2845,62.24,76,2,4.92,clear sky
243,Krasnoselkup,RU,65.7,82.4667,28.45,82,99,18.9,overcast clouds
244,Iqaluit,CA,63.7506,-68.5145,26.33,73,75,5.75,broken clouds
245,Lensk,RU,60.7253,114.9278,28.94,95,100,9.22,light snow
246,Alexandria,EG,31.2156,29.9553,67.48,69,20,7.78,few clouds
247,Pisco,PE,-13.7,-76.2167,69.03,77,0,8.05,clear sky
248,Beloha,MG,-25.1667,45.05,68.18,84,10,4.83,clear sky
249,Hobyo,SO,5.3505,48.5268,85.87,71,100,16.46,light rain
250,Sao Jose Do Calcado,BR,-21.0253,-41.6544,82.49,54,7,1.5,clear sky
251,Mumford,GH,5.2618,-0.759,83.48,73,69,12.06,broken clouds
252,Avera,US,33.194,-82.5271,81.91,58,43,9.62,scattered clouds
253,Kerema,PG,-7.9631,145.7785,77.4,88,65,5.64,moderate rain
254,Leningradskiy,RU,69.3833,178.4167,0.66,84,76,6.33,broken clouds
255,Saint-Philippe,RE,-21.3585,55.7679,76.59,82,44,3.58,scattered clouds
256,Naron,ES,43.5167,-8.1528,63.03,77,78,8.01,broken clouds
257,Wad Rawah,SD,15.1603,33.1397,101.5,10,38,8.08,scattered clouds
258,Nikolskoye,RU,59.7035,30.7861,46.71,70,53,3.09,broken clouds
259,Toropets,RU,56.4978,31.6353,44.08,59,99,3.74,overcast clouds
260,Zurrieq,MT,35.8311,14.4742,60.96,76,99,15.79,overcast clouds
261,Kaliua,TZ,-5.0606,31.7936,68.45,88,99,4.92,moderate rain
262,Baherden,TM,38.4362,57.4316,66.25,76,93,3.51,overcast clouds
263,Port Hawkesbury,CA,45.6169,-61.3485,41.92,93,100,18.41,mist
264,Tulum,MX,20.2167,-87.4667,84.24,65,7,8.72,clear sky
265,Xixiang,CN,35.1628,112.865,60.48,23,0,5.95,clear sky
266,Cayeli,TR,41.0923,40.7292,55.49,95,100,3.27,light rain
267,Oakley,US,37.9974,-121.7124,69.44,38,0,13.0,clear sky
268,Goba,ET,7.0167,39.9833,52.45,87,100,3.09,overcast clouds
269,Sao Joao Do Piaui,BR,-8.3581,-42.2467,96.91,25,9,7.56,clear sky
270,Pangody,RU,65.85,74.4859,24.55,93,100,6.06,overcast clouds
271,Kavieng,PG,-2.5744,150.7967,81.64,76,8,4.52,clear sky
272,Upernavik,GL,72.7868,-56.1549,13.93,64,92,4.32,overcast clouds
273,Kirakira,SB,-10.4544,161.9205,79.12,84,100,5.73,overcast clouds
274,Loyga,RU,61.0784,44.6075,31.05,85,71,3.76,broken clouds
275,Lompoc,US,34.6391,-120.4579,64.85,63,0,20.71,clear sky
276,Husavik,IS,66.0449,-17.3389,29.41,70,100,13.98,overcast clouds
277,Atasu,KZ,48.6814,71.6433,68.5,33,96,8.25,overcast clouds
278,Boende,CD,-0.2167,20.8667,75.6,84,82,3.27,broken clouds
279,Ahipara,NZ,-35.1667,173.1667,60.04,88,98,6.2,overcast clouds
280,Sur,OM,22.5667,59.5289,85.84,54,0,6.6,clear sky
281,Ostersund,SE,63.1792,14.6357,46.62,53,0,6.91,clear sky
282,Roebourne,AU,-20.7833,117.1333,82.06,48,98,12.59,overcast clouds
283,Ilulissat,GL,69.2167,-51.1,24.82,46,0,4.61,clear sky
284,Duldurga,RU,50.6761,113.5931,48.11,65,68,4.14,broken clouds
285,Ostrovnoy,RU,68.0531,39.5131,24.66,83,91,7.81,overcast clouds
286,Atbasar,KZ,51.8,68.3333,57.58,61,89,11.3,overcast clouds
287,Lata,PT,40.1629,-8.3327,61.07,59,29,12.19,scattered clouds
288,Carnarvon,AU,-24.8667,113.6333,66.27,72,0,8.05,clear sky
289,Lavrentiya,RU,65.5833,-171.0,11.62,90,49,10.4,scattered clouds
290,Turbat,PK,26.0023,63.044,86.58,23,0,10.54,clear sky
291,Bathsheba,BB,13.2167,-59.5167,86.61,70,20,18.41,few clouds
292,Fortuna,US,40.5982,-124.1573,58.93,78,75,10.36,broken clouds
293,Batsfjord,NO,70.6345,29.7185,28.18,74,40,2.3,scattered clouds
294,Verkhnechusovskiye Gorodki,RU,58.1671,57.1086,31.08,77,55,4.83,broken clouds
295,Saint George,US,37.1041,-113.5841,76.62,15,0,13.0,clear sky
296,Nizhnevartovsk,RU,60.9344,76.5531,35.62,44,0,4.47,clear sky
297,Talaya,RU,61.3833,152.75,8.38,96,34,3.78,scattered clouds
298,Taltal,CL,-25.4,-70.4833,65.66,67,17,5.55,few clouds
299,Mount Isa,AU,-20.7333,139.5,71.37,64,80,11.5,broken clouds
300,Ekhabi,RU,53.5102,142.9671,27.19,97,65,4.52,broken clouds
301,Surt,LY,31.2089,16.5887,68.25,75,0,27.78,clear sky
302,El Coco,PA,8.8703,-79.815,88.59,74,100,7.05,overcast clouds
303,Susanville,US,40.4163,-120.653,51.66,50,0,8.01,clear sky
304,Beringovskiy,RU,63.05,179.3167,12.47,94,97,12.64,overcast clouds
305,Kashi,CN,39.4547,75.9797,65.41,25,53,6.71,broken clouds
306,Thai Nguyen,VN,21.5928,105.8442,71.38,64,65,4.65,broken clouds
307,Excelsior Springs,US,39.3392,-94.2261,63.59,41,0,14.97,clear sky
308,Rio Gallegos,AR,-51.6226,-69.2181,46.45,57,0,5.75,clear sky
309,Fort Nelson,CA,58.8053,-122.7002,42.39,61,0,5.75,clear sky
310,Erenhot,CN,43.6475,111.9767,54.64,42,53,0.36,broken clouds
311,Pacific Grove,US,36.6177,-121.9166,60.55,74,20,11.01,few clouds
312,Saskylakh,RU,71.9167,114.0833,10.63,96,71,6.08,broken clouds
313,San Cristobal,VE,7.7669,-72.225,86.18,51,98,8.41,overcast clouds
314,Iraucuba,BR,-3.7461,-39.7833,85.86,58,100,7.74,overcast clouds
315,Bolobo,CD,-2.1667,16.2333,74.44,86,70,6.33,light rain
316,Port Augusta,AU,-32.5,137.7667,57.74,58,0,3.04,clear sky
317,Changping,CN,40.2186,116.2197,51.44,34,61,2.08,broken clouds
318,Coquimbo,CL,-29.9533,-71.3436,58.73,82,75,12.66,broken clouds
319,Wencheng,CN,33.0559,113.7978,56.71,44,80,10.45,broken clouds
320,Camacha,PT,33.0833,-16.3333,65.62,73,20,13.8,few clouds
321,Russell,US,32.3502,-85.1999,78.12,78,75,0.0,broken clouds
322,Nantucket,US,41.2835,-70.0995,62.71,54,0,6.91,clear sky
323,Shenjiamen,CN,29.9576,122.298,55.74,61,100,3.78,overcast clouds
324,Lasa,IT,46.6166,10.7002,54.48,88,100,3.62,overcast clouds
325,Mitsamiouli,KM,-11.3847,43.2844,81.07,76,64,15.59,light rain
326,Kahului,US,20.8947,-156.47,75.85,83,40,13.8,scattered clouds
327,Juliaca,PE,-15.5,-70.1333,60.37,35,2,4.94,clear sky
328,Clyde River,CA,70.4692,-68.5914,14.23,85,100,13.8,light snow
329,Pacasmayo,PE,-7.4006,-79.5714,71.17,74,51,9.26,broken clouds
330,Samarai,PG,-10.6167,150.6667,79.92,82,49,9.91,heavy intensity rain
331,Pangai,TO,-19.8,-174.35,81.32,84,100,12.57,light rain
332,Yining,CN,29.0361,114.5636,54.64,84,89,1.01,overcast clouds
333,Mwene-Ditu,CD,-7.0,23.45,65.5,98,100,3.65,light rain
334,Marsabit,KE,2.3284,37.9899,67.03,80,100,9.71,overcast clouds
335,Moba,CN,33.2288,105.0179,42.53,69,87,3.22,overcast clouds
336,Kodinsk,RU,58.6881,99.1844,28.69,95,100,3.11,overcast clouds
337,Bulri,PK,24.8667,68.3333,86.99,57,45,17.85,scattered clouds
338,Vao,NC,-22.6667,167.4833,75.42,84,32,21.3,scattered clouds
339,Guapore,BR,-28.8456,-51.8903,62.71,97,100,2.28,overcast clouds
340,Belaya Gora,RU,68.5333,146.4167,9.57,99,80,5.55,broken clouds
341,Vestmannaeyjar,IS,63.4427,-20.2734,49.19,71,0,14.97,clear sky
342,Ligayan,PH,4.6533,119.4706,83.21,75,21,5.03,few clouds
343,Harper,LR,4.375,-7.7169,83.91,73,98,8.25,light rain
344,Alta Floresta,BR,-9.8756,-56.0861,93.02,52,40,5.75,scattered clouds
345,Thompson,CA,55.7435,-97.8558,24.96,86,100,13.8,overcast clouds
346,Youhao,CN,47.8667,128.8333,36.28,92,93,2.95,overcast clouds
347,Qaanaaq,GL,77.484,-69.3632,12.87,66,20,5.12,few clouds
348,Parainen,FI,60.3067,22.301,48.36,70,35,10.89,scattered clouds
349,Scarborough,GB,54.2797,-0.4044,56.77,79,100,5.99,overcast clouds
350,San Patricio,US,28.017,-97.5169,88.52,59,68,16.4,broken clouds
351,Dauphin,CA,51.1494,-100.0502,37.54,87,100,17.27,overcast clouds
352,Waipawa,NZ,-41.4122,175.5153,56.08,81,62,13.24,broken clouds
353,Villarrica,PY,-25.75,-56.4333,77.79,75,78,1.03,broken clouds
354,Laguna,US,38.421,-121.4238,67.14,56,0,13.8,clear sky
355,Krasnyy Chikoy,RU,50.3643,108.7512,48.15,57,70,3.83,broken clouds
356,Seydi,TM,39.4816,62.9137,84.67,19,90,28.34,overcast clouds
357,Huesca,ES,42.1362,-0.4087,72.28,36,20,11.5,few clouds
358,Issia,CI,6.4922,-6.5856,91.47,48,76,4.76,broken clouds
359,Garowe,SO,8.4054,48.4845,89.44,42,99,15.88,overcast clouds
360,Mantua,IT,45.1667,10.7833,67.24,64,60,11.99,light rain
361,Shihezi,CN,44.3,86.0333,70.14,18,62,2.84,broken clouds
362,Adwa,ET,14.1646,38.8955,74.48,40,12,17.72,few clouds
363,Miranda,CO,3.2499,-76.2281,80.73,66,76,1.88,broken clouds
364,Wanning,CN,18.8003,110.3967,70.86,94,100,14.83,moderate rain
365,Khingansk,RU,49.1167,131.1833,32.67,95,100,1.36,overcast clouds
366,Ponta Do Sol,PT,32.6667,-17.1,72.23,59,0,2.1,clear sky
367,Nishihara,JP,26.1842,127.7558,67.28,78,100,14.97,overcast clouds
368,Aasiaat,GL,68.7098,-52.8699,19.56,67,17,7.9,few clouds
369,Revelstoke,CA,50.9832,-118.2023,51.82,50,0,3.44,clear sky
370,Lazaro Cardenas,MX,17.9583,-102.2,86.18,37,24,7.11,few clouds
371,Urusha,RU,54.05,122.9,36.32,36,100,2.15,overcast clouds
372,Haines Junction,CA,60.7522,-137.5108,37.35,65,100,2.3,overcast clouds
373,Kurilsk,RU,45.2333,147.8833,34.29,89,100,10.69,snow
374,Hasaki,JP,35.7333,140.8333,52.29,80,100,21.81,overcast clouds
375,Cherskiy,RU,68.75,161.3,8.4,92,18,6.89,few clouds
376,Conceicao Do Araguaia,BR,-8.2578,-49.2647,89.13,48,64,7.83,broken clouds
377,Mecca,SA,21.4267,39.8261,88.38,46,0,5.39,clear sky
378,Sisimiut,GL,66.9395,-53.6735,29.62,54,61,4.29,broken clouds
379,Moose Factory,CA,51.2585,-80.6094,48.2,49,0,16.11,clear sky
380,Falun,SE,60.6036,15.626,54.21,40,78,3.49,broken clouds
381,Itaituba,BR,-4.2761,-55.9836,87.96,70,40,5.75,scattered clouds
382,Broome,US,42.2506,-75.833,67.8,27,0,8.05,clear sky
383,Babu,CN,24.4167,111.5167,57.06,94,100,5.61,overcast clouds
384,Ippy,CF,6.2679,21.2247,80.85,63,66,1.07,light rain
385,Marsa Matruh,EG,31.3525,27.2453,68.11,69,77,10.18,broken clouds
386,Galle,LK,6.0367,80.217,81.54,84,100,13.38,moderate rain
387,Kavaratti,IN,10.5669,72.642,85.01,71,24,10.11,few clouds
388,Yarega,RU,63.4354,53.5765,26.26,86,67,3.83,broken clouds
389,Vangaindrano,MG,-23.35,47.6,71.85,86,0,2.39,clear sky
390,Teguldet,RU,57.3064,88.1667,38.08,73,100,9.62,overcast clouds
391,Ambon,ID,-3.6954,128.1814,78.94,94,40,8.05,scattered clouds
392,Ouadda,CF,8.0777,22.4007,80.58,48,98,4.88,light rain
393,Akureyri,IS,65.6835,-18.0878,31.93,64,75,17.27,broken clouds
394,Nuuk,GL,64.1835,-51.7216,30.81,55,20,11.5,few clouds
395,Marrakesh,MA,31.6315,-8.0083,86.07,21,0,10.36,clear sky
396,Sisophon,KH,13.5859,102.9737,78.06,88,100,3.85,moderate rain
397,Inhambane,MZ,-23.865,35.3833,71.65,75,38,10.29,light rain
398,Naryan-Mar,RU,67.6713,53.087,18.77,92,99,8.97,overcast clouds
399,Myitkyina,MM,25.3833,97.4,70.25,83,29,2.68,scattered clouds
400,East London,ZA,-33.0153,27.9116,61.74,72,0,8.05,clear sky
401,Saint-Augustin,CA,51.226,-58.6502,38.55,83,100,22.84,overcast clouds
402,Faanui,PF,-16.4833,-151.75,80.4,74,29,10.98,scattered clouds
403,Pontarlier,FR,46.8333,6.25,53.94,65,98,6.04,overcast clouds
404,Axim,GH,4.8699,-2.2405,83.37,74,100,8.5,overcast clouds
405,Palana,RU,59.1167,159.9667,24.24,93,9,5.5,clear sky
406,Empangeni,ZA,-28.762,31.8933,60.67,82,0,3.94,clear sky
407,Canakkale,TR,40.0833,26.8333,57.78,89,70,9.31,broken clouds
408,Poum,NC,-20.2333,164.0167,77.04,79,10,4.68,clear sky
409,North Bay,CA,46.3168,-79.4663,64.42,23,75,18.41,broken clouds
410,Broken Hill,AU,-31.95,141.4333,49.71,81,0,4.61,clear sky
411,Sandwick,GB,60.0,-1.25,48.02,87,75,9.22,broken clouds
412,Sechura,PE,-5.5569,-80.8222,76.87,61,89,6.69,overcast clouds
413,Ferentino,IT,41.6953,13.2564,61.92,99,99,3.83,overcast clouds
414,Franklin,US,39.9667,-83.0166,75.81,70,75,18.41,broken clouds
415,Sembe,CG,1.6481,14.5806,80.67,70,95,3.91,overcast clouds
416,Linqiong,CN,30.4159,103.4609,57.02,60,100,5.73,overcast clouds
417,Chicama,PE,-7.8447,-79.1469,64.94,62,71,9.57,broken clouds
418,Reconquista,AR,-29.15,-59.65,61.57,75,100,6.4,overcast clouds
419,Ayorou,NE,14.7308,0.9174,106.14,7,43,5.73,scattered clouds
420,Chesterton,US,41.6106,-87.0642,55.15,77,100,20.71,overcast clouds
421,Fevik,NO,58.3794,8.6766,56.08,59,70,11.56,broken clouds
422,Tateyama,JP,34.9833,139.8667,60.1,84,100,16.2,overcast clouds
423,Buraydah,SA,26.326,43.975,86.45,12,0,11.92,clear sky
424,Shingu,JP,33.7333,135.9833,50.68,82,100,6.2,overcast clouds
425,Umm Lajj,SA,25.0213,37.2685,79.39,57,0,8.57,clear sky
426,Flinders,AU,-34.5833,150.8552,55.26,89,8,3.0,clear sky
427,Seoul,KR,37.5683,126.9778,51.24,90,0,1.14,clear sky
428,Coos Bay,US,43.3665,-124.2179,57.31,87,0,3.44,clear sky
429,Evanston,US,42.0411,-87.6901,52.18,76,100,18.41,overcast clouds
430,Sept-Iles,CA,50.2001,-66.3821,52.23,46,75,16.11,broken clouds
431,Boromo,BF,11.75,-2.9333,102.33,20,93,3.2,overcast clouds
432,Panacan,PH,9.2463,118.4082,79.88,85,99,3.6,overcast clouds
433,Mokrous,RU,51.2333,47.5167,44.13,48,54,8.55,broken clouds
434,Kudahuvadhoo,MV,2.6708,72.8944,86.11,74,78,17.94,broken clouds
435,La Ronge,CA,55.1001,-105.2842,32.25,69,100,6.91,overcast clouds
436,Vila Do Maio,CV,15.1333,-23.2167,83.19,76,0,17.6,clear sky
437,Grande Prairie,CA,55.1667,-118.8027,42.98,87,100,8.05,overcast clouds
438,Banjar,ID,-8.19,114.9675,77.45,88,97,3.33,overcast clouds
439,Chokwe,MZ,-24.5333,32.9833,66.87,82,2,6.04,clear sky
440,Superior,US,46.7208,-92.1041,45.75,96,100,5.75,light intensity drizzle
441,Cartagena,CO,10.3997,-75.5144,87.42,66,75,6.91,broken clouds
442,Yarensk,RU,62.1675,49.0916,30.02,77,95,2.21,overcast clouds
443,Plainview,US,40.7765,-73.4673,69.96,40,0,10.36,clear sky
444,Nelson Bay,AU,-32.7167,152.15,58.08,97,9,3.62,clear sky
445,Bereda,ES,43.2686,-7.5406,61.41,81,45,5.97,scattered clouds
446,Rocha,UY,-34.4833,-54.3333,62.56,50,4,13.44,clear sky
447,Domoni,KM,-12.2569,44.5319,79.68,84,88,12.1,overcast clouds
448,Nassau,US,40.7507,-73.5829,70.92,42,0,10.36,clear sky
449,Hambantota,LK,6.1241,81.1185,82.02,80,100,16.35,overcast clouds
450,Myanaung,MM,18.2833,95.3167,88.36,53,11,5.82,few clouds
451,Grenfell,AU,-33.9,148.1667,47.57,83,12,3.51,few clouds
452,Tefe,BR,-3.3542,-64.7114,89.71,70,40,4.61,scattered clouds
453,Hervey Bay,AU,-25.2986,152.8535,67.01,93,93,8.01,overcast clouds
454,Andra,RU,62.5147,65.8878,30.67,93,100,3.27,overcast clouds
455,Ulladulla,AU,-35.35,150.4667,52.7,73,13,4.27,few clouds
456,Progreso,MX,21.2833,-89.6667,92.1,58,1,10.58,clear sky
457,Ishim,RU,56.1128,69.4902,37.2,98,100,4.29,overcast clouds
458,Chicaman,GT,15.4,-90.7667,76.32,49,100,4.81,overcast clouds
459,Genhe,CN,50.7833,121.5167,32.65,50,82,3.8,broken clouds
460,Cascais,PT,38.6979,-9.4215,67.46,59,20,24.0,few clouds
461,Kerman,IR,30.2832,57.0788,67.86,32,20,4.61,few clouds
462,Troitskoye,RU,52.9821,84.6757,64.42,36,97,8.12,overcast clouds
463,Kotelnich,RU,58.3089,48.348,38.05,73,100,5.08,overcast clouds
464,Kuloy,RU,61.0305,42.4925,34.3,81,99,4.07,overcast clouds
465,Abu Samrah,SY,35.3029,37.1841,65.05,61,0,16.42,clear sky
466,Srednekolymsk,RU,67.45,153.6833,26.73,97,100,1.7,overcast clouds
467,Codrington,AU,-38.2667,141.9667,56.46,89,61,9.22,broken clouds
468,Vanimo,PG,-2.6741,141.3028,78.08,87,80,6.44,light rain
469,Sakakah,SA,29.9697,40.2064,81.97,21,0,12.28,clear sky
470,Puerto Escondido,MX,15.85,-97.0667,86.83,70,75,9.22,broken clouds
471,Pijijiapan,MX,15.7011,-93.23,92.84,48,75,8.01,broken clouds
472,Tobermory,CA,45.2501,-81.6665,43.75,71,100,23.89,overcast clouds
473,Blairmore,CA,49.6,-114.4353,47.32,87,100,4.61,overcast clouds
474,Alamogordo,US,32.8995,-105.9603,80.56,23,0,18.41,clear sky
475,Vila Franca Do Campo,PT,37.7167,-25.4333,64.81,68,12,2.77,few clouds
476,Koraput,IN,18.8167,82.7167,79.88,56,56,5.88,broken clouds
477,Nicoya,CR,10.1483,-85.452,87.46,58,100,3.53,overcast clouds
478,Sechelt,CA,49.4664,-123.7694,55.81,77,99,8.37,overcast clouds
479,Zhezkazgan,KZ,47.8043,67.7144,66.87,42,100,11.1,overcast clouds
480,Arroyo,ES,41.6096,-4.7969,73.15,41,20,3.44,few clouds
481,Kyra,RU,49.5776,111.9753,48.45,63,97,4.45,overcast clouds
482,Haapiti,PF,-17.5667,-149.8667,76.73,72,63,7.99,broken clouds
483,Maniitsoq,GL,65.4167,-52.9,29.79,66,20,10.07,few clouds
484,Erzin,TR,36.9559,36.2,63.79,93,76,2.48,moderate rain
485,Kasongo-Lunda,CD,-6.4667,16.8167,73.63,83,97,2.39,overcast clouds
486,Verkhoyansk,RU,67.5447,133.385,23.14,85,99,5.59,overcast clouds
487,Isangel,VU,-19.55,169.2667,78.71,89,100,3.94,overcast clouds
488,Paka,MY,4.6374,103.4368,76.93,94,100,0.0,overcast clouds
489,La Spezia,IT,44.1105,9.8434,64.08,62,70,6.38,broken clouds
490,Hovd,MN,48.0056,91.6419,57.36,18,97,7.7,overcast clouds
491,Igarka,RU,67.4667,86.5833,21.67,98,100,3.02,overcast clouds
492,Mendi,PG,-6.1761,143.6513,56.84,98,93,0.94,overcast clouds
493,Abaza,RU,52.655,90.0928,57.99,43,98,5.61,overcast clouds
494,Mwingi,KE,-0.9344,38.0601,71.96,71,91,8.39,overcast clouds
495,Tautira,PF,-17.7333,-149.15,79.47,74,62,7.31,broken clouds
496,Narsaq,GL,60.9167,-46.05,46.62,72,58,4.0,broken clouds
497,Anadyr,RU,64.75,177.4833,14.5,85,0,11.18,clear sky
498,Roma,US,43.2128,-75.4557,66.81,27,0,13.8,clear sky
499,Nelson,NZ,-41.2833,173.2833,60.69,100,89,1.01,overcast clouds
500,Pueblo Nuevo,MX,23.3833,-105.3833,74.91,10,67,6.76,broken clouds
501,Aykhal,RU,66.0,111.5,3.18,90,16,6.6,few clouds
502,Soe,ID,-9.8607,124.284,66.11,95,48,3.69,scattered clouds
503,Springville,US,40.1652,-111.6107,59.72,52,100,18.41,overcast clouds
504,Homer,US,59.6425,-151.5483,42.69,75,100,20.0,overcast clouds
505,Touros,BR,-5.1989,-35.4608,85.01,67,84,16.42,broken clouds
506,Alofi,NU,-19.0595,-169.9187,75.09,94,99,2.3,overcast clouds
507,Te Anau,NZ,-45.4167,167.7167,47.25,92,39,2.53,scattered clouds
508,Kailua,US,21.4022,-157.7394,75.18,84,75,17.27,moderate rain
509,Kilindoni,TZ,-7.9139,39.6668,82.06,72,99,16.62,overcast clouds
510,Lourdes,FR,43.1,-0.05,62.08,67,75,6.91,broken clouds
511,Tessalit,ML,20.1986,1.0114,92.32,8,5,16.2,clear sky
512,Dunedin,NZ,-45.8742,170.5036,56.8,91,27,3.47,scattered clouds
513,Hurghada,EG,27.2574,33.8129,80.28,32,0,11.1,clear sky
514,Molochnoye,RU,59.2917,39.6787,37.71,88,100,4.85,overcast clouds
515,Chumikan,RU,54.7183,135.315,26.85,96,100,1.07,overcast clouds
516,Birjand,IR,32.8663,59.2211,63.07,59,40,4.61,scattered clouds
517,Ginda,IN,30.6945,78.4932,59.95,63,99,7.16,overcast clouds
518,Iwanai,JP,42.9744,140.5089,42.06,92,66,1.3,broken clouds
519,Opuwo,NA,-18.0607,13.84,77.65,29,29,5.61,scattered clouds
520,Tisul,RU,55.7611,88.3122,42.96,77,100,15.88,overcast clouds
521,Prince George,CA,53.9166,-122.753,49.62,56,0,2.3,clear sky
522,Adrar,MR,20.5022,-10.0711,97.16,6,0,3.31,clear sky
523,Ngunguru,NZ,-35.6167,174.5,62.6,76,68,8.41,broken clouds
524,Nizhniy Tsasuchey,RU,50.5167,115.1333,48.85,55,96,6.71,overcast clouds
525,Luwuk,ID,-0.9516,122.7875,77.34,90,87,4.32,overcast clouds
526,Cap-Aux-Meules,CA,47.3821,-61.8597,35.65,93,100,23.02,light intensity drizzle
527,Egvekinot,RU,66.3167,-179.1667,3.27,83,16,10.51,few clouds
528,Chernyshevskiy,RU,63.0128,112.4714,8.04,95,19,3.98,few clouds
529,Vadso,NO,70.0744,29.7487,29.28,68,0,6.91,clear sky
530,Barnova,RO,47.0667,27.6167,60.73,45,0,6.91,clear sky
531,La Mira,MX,18.035,-102.3266,87.49,33,31,7.34,scattered clouds
532,Todos Santos,MX,23.45,-110.2167,69.84,58,70,7.05,broken clouds
533,Ilek,RU,51.5271,53.3831,44.47,52,59,8.75,broken clouds
534,Xining,CN,36.6167,101.7667,37.76,65,65,2.48,broken clouds
535,Garden City,US,42.3256,-83.331,68.9,72,75,5.75,broken clouds
536,Gayeri,BF,12.6497,0.4931,102.92,16,58,1.57,broken clouds
537,Bud,US,39.447,-86.1758,69.22,59,28,17.69,scattered clouds
538,Mawlaik,MM,23.6333,94.4167,76.08,65,83,1.68,broken clouds
539,Amga,RU,60.8953,131.9608,28.04,94,13,4.29,few clouds
540,Poronaysk,RU,49.2167,143.1167,31.8,85,73,1.28,broken clouds
541,Mutoko,ZW,-17.397,32.2268,63.19,64,53,9.33,broken clouds
542,Eureka,US,40.8021,-124.1637,59.2,76,3,5.01,clear sky
543,Morondava,MG,-20.2833,44.2833,77.16,68,0,14.32,clear sky
544,Chara,RU,56.9064,118.2631,39.81,87,100,3.58,overcast clouds
545,Khandyga,RU,62.6667,135.6,29.79,94,100,4.94,overcast clouds
546,Tartagal,AR,-22.5164,-63.8013,59.22,99,100,3.76,overcast clouds
547,Betera,ES,39.5833,-0.45,68.0,60,0,9.22,clear sky
548,Kupang,ID,-10.1667,123.5833,78.33,85,80,8.66,broken clouds
549,Monterey,US,36.2505,-121.2516,63.18,43,3,7.23,clear sky
550,Carlos Antonio Lopez,PY,-26.4,-54.7667,78.87,66,89,0.92,overcast clouds
551,Agadez,NE,19.75,10.25,95.34,9,43,10.4,scattered clouds
552,Bhadrachalam,IN,17.6667,80.8833,88.63,52,78,7.16,broken clouds
553,Aldan,RU,58.6031,125.3894,31.26,93,100,11.05,snow
554,Andenes,NO,69.3143,16.1194,33.78,93,100,13.8,light rain
555,Sistranda,NO,63.7256,8.834,48.16,86,100,28.03,overcast clouds
556,Dong Xoai,VN,11.5333,106.9167,75.54,96,100,4.41,overcast clouds
557,Piacabucu,BR,-10.4056,-36.4344,82.8,62,59,12.44,broken clouds
558,At-Bashi,KG,41.1702,75.8106,52.81,38,92,8.28,overcast clouds
559,Sabang,ID,5.8933,95.3214,83.66,75,96,22.5,overcast clouds
560,Sao Miguel Do Araguaia,BR,-13.275,-50.1628,89.11,38,6,4.38,clear sky
561,San Rafael,AR,-34.6177,-68.3301,62.56,26,0,8.16,clear sky
562,Tazovskiy,RU,67.4667,78.7,14.49,95,63,9.31,broken clouds
563,Quimper,FR,48.0,-4.1,61.38,51,0,4.61,clear sky
564,Mount Pleasant,US,32.7941,-79.8626,84.09,57,0,9.22,clear sky
565,Zheleznogorsk-Ilimskiy,RU,56.5768,104.1217,34.48,92,100,4.45,overcast clouds
566,Sioux Lookout,CA,50.1001,-91.917,39.27,93,100,6.91,overcast clouds
567,Kandi,BJ,11.1342,2.9386,96.53,22,74,2.15,broken clouds
568,Olafsvik,IS,64.8945,-23.7142,39.24,58,67,16.93,broken clouds
569,Campina Grande Do Sul,BR,-25.3056,-49.0553,84.2,44,15,6.17,few clouds
570,Soyo,AO,-6.1349,12.3689,78.55,89,100,3.58,overcast clouds
571,Sampit,ID,-2.5333,112.95,76.19,95,99,2.68,moderate rain
572,Castelo Do Piaui,BR,-5.3222,-41.5525,88.0,48,53,2.48,light rain
573,Pathalgaon,IN,22.5667,83.4667,80.49,51,78,9.48,broken clouds
574,Oltenita,RO,44.0833,26.6333,54.73,62,82,9.31,broken clouds
575,Oskaloosa,US,41.2964,-92.6444,50.32,76,100,17.02,overcast clouds
576,Sao Gabriel Da Cachoeira,BR,-0.1303,-67.0892,84.0,74,75,5.75,broken clouds
577,Bandarbeyla,SO,9.4942,50.8122,84.47,76,64,10.42,broken clouds
578,Erdemli,TR,36.605,34.3084,71.19,77,6,4.29,clear sky
579,Stonewall,CA,50.1344,-97.3268,37.78,93,100,18.79,overcast clouds
580,Thabazimbi,ZA,-24.5917,27.4116,66.2,44,50,2.93,scattered clouds
581,Leninogorsk,RU,54.6026,52.4609,35.56,57,42,4.14,scattered clouds
582,Hermiston,US,45.8404,-119.2895,60.1,70,0,5.75,clear sky
583,Walvis Bay,NA,-22.9575,14.5053,68.95,52,6,5.75,clear sky
584,Palmeira Das Missoes,BR,-27.8994,-53.3136,68.36,85,99,7.23,overcast clouds
585,Chapais,CA,49.7834,-74.8492,51.58,64,28,6.64,scattered clouds
586,Haverfordwest,GB,51.8017,-4.9691,54.05,88,100,4.0,overcast clouds
587,Brenham,US,30.1669,-96.3977,84.34,73,100,4.61,overcast clouds
588,Karymskoye,RU,51.6167,114.35,47.16,76,82,3.96,broken clouds
589,Pocone,BR,-16.2567,-56.6228,94.91,27,1,4.29,clear sky
590,Shikhazany,RU,55.5605,47.393,37.26,61,53,7.7,broken clouds
591,Luanda,AO,-8.8368,13.2343,80.6,83,20,10.36,few clouds
592,Comodoro Rivadavia,AR,-45.8667,-67.5,49.86,81,100,2.3,light rain
593,Northam,GB,51.0333,-4.2167,49.6,94,100,4.63,overcast clouds
594,Balykshi,KZ,47.0667,51.8667,59.0,41,0,17.9,clear sky
595,Parana,AR,-31.732,-60.5238,72.55,32,2,7.52,clear sky
596,Ust-Nera,RU,64.5667,143.2,20.93,97,87,4.36,overcast clouds
597,Santa Marta,CO,11.2408,-74.199,87.85,66,100,8.05,overcast clouds
598,Forestville,US,38.8451,-76.875,68.9,56,100,12.66,overcast clouds
599,Ploemeur,FR,47.7333,-3.4333,60.82,63,0,6.91,clear sky
600,Visby,SE,57.6409,18.296,48.42,49,0,3.44,clear sky
601,San Roque,ES,36.2107,-5.3842,76.03,44,0,11.5,clear sky
602,Altay,CN,47.8667,88.1167,55.35,27,71,11.1,broken clouds
603,Tigil,RU,57.8,158.6667,27.9,93,100,3.69,overcast clouds
604,Marmora,IT,44.4583,7.094,57.67,86,93,1.43,overcast clouds
605,Gibara,CU,21.1097,-76.1317,88.92,61,16,18.21,few clouds
606,Paulo Ramos,BR,-4.2167,-45.1833,81.18,87,58,3.4,broken clouds
607,Dotnuva,LT,55.35,23.9,48.88,89,100,3.8,overcast clouds
608,Victor Harbor,AU,-35.5667,138.6167,59.0,91,36,7.23,scattered clouds
609,Ingersoll,CA,43.0334,-80.883,52.59,92,100,14.07,overcast clouds
610,Atar,MR,20.5169,-13.0499,100.81,5,3,9.66,clear sky
611,Caucaia,BR,-3.7361,-38.6531,87.75,59,20,16.11,few clouds
612,Bombay,IN,19.0144,72.8479,85.98,79,40,9.22,haze
613,Chuy,UY,-33.6971,-53.4616,65.26,47,3,10.18,clear sky
614,Roald,NO,62.5833,6.1333,50.92,76,40,20.71,scattered clouds
615,Santa Cruz,BO,-17.8,-63.1667,86.05,54,75,17.27,broken clouds
616,Billings,US,45.7833,-108.5007,54.28,59,100,17.27,overcast clouds
617,Iiyama,JP,36.85,138.3667,46.15,94,87,2.06,overcast clouds
618,Shimoda,JP,34.6667,138.95,53.1,85,100,11.56,overcast clouds
619,San Alberto,CO,7.7611,-73.3922,87.57,70,82,3.76,broken clouds
620,Salaga,GH,8.5508,-0.5188,78.26,65,53,13.53,moderate rain
621,Kuching,MY,1.55,110.3333,79.02,89,40,5.01,light rain
622,Pierre,US,44.3683,-100.351,56.32,72,0,25.32,clear sky
623,Viransehir,TR,37.2353,39.7631,59.88,81,81,0.54,broken clouds
624,Carauari,BR,-4.8828,-66.8958,81.0,88,82,1.88,broken clouds
625,Kushima,JP,31.4583,131.2333,57.31,82,100,6.24,overcast clouds
626,Helong,CN,42.5397,128.9972,31.53,90,62,4.43,broken clouds
627,Kenai,US,60.5544,-151.2583,46.49,61,0,18.41,clear sky
628,Merritt,CA,50.1123,-120.7942,54.45,58,59,4.34,broken clouds
629,Artyom,AZ,40.4723,50.333,59.14,87,9,21.27,clear sky
630,Borovoy,RU,55.4333,86.0833,47.48,66,0,11.18,clear sky
631,Shu,KZ,43.5983,73.7614,70.38,38,99,4.88,overcast clouds
632,Yuzhno-Kurilsk,RU,44.0306,145.8556,39.43,90,100,20.02,overcast clouds
633,Rawlins,US,41.7911,-107.2387,50.36,46,75,14.97,broken clouds
634,Carutapera,BR,-1.195,-46.02,83.8,71,42,5.57,scattered clouds
635,Huarmey,PE,-10.0681,-78.1522,70.59,76,21,8.52,few clouds
636,Mae Hong Son,TH,19.3003,97.9685,77.0,73,70,0.63,broken clouds
637,Faya,SA,18.3851,42.4509,68.11,55,19,4.81,few clouds
638,La Sarre,CA,48.8002,-79.1996,55.35,51,100,13.04,overcast clouds
639,Porbandar,IN,21.6422,69.6093,84.16,83,0,12.06,clear sky
640,Kungurtug,RU,50.5994,97.5228,43.18,53,34,2.86,scattered clouds
641,Kakonko,TZ,-3.2828,30.9642,65.19,94,99,2.04,light rain
642,Tagusao,PH,9.1924,117.8141,79.72,85,82,3.53,broken clouds
643,Kysyl-Syr,RU,63.8986,122.7617,20.98,87,100,14.03,light snow
644,Antibes,FR,43.5624,7.1278,62.64,76,75,8.05,light rain
645,Orlik,RU,52.5178,99.825,40.1,65,77,3.89,broken clouds
646,Port Hardy,CA,50.6996,-127.4199,48.38,87,100,3.44,overcast clouds
647,Balaipungut,ID,1.05,101.2833,76.42,96,100,1.9,moderate rain
648,Anloga,GH,5.7947,0.8973,83.93,74,79,10.25,broken clouds
649,Oktyabrskiy,RU,54.4815,53.471,35.91,61,56,4.76,broken clouds
650,Quarai,BR,-30.3875,-56.4514,68.25,66,87,8.52,overcast clouds
651,Mengcheng,CN,33.2579,116.5655,51.94,62,69,8.99,broken clouds
652,Shaowu,CN,27.3409,117.4831,55.45,96,100,2.33,heavy intensity rain
653,Alice Springs,AU,-23.7,133.8833,56.75,67,40,4.61,scattered clouds
654,Xuddur,SO,4.1213,43.8894,75.29,73,98,4.99,overcast clouds
655,Mayo,US,38.8876,-76.5119,69.13,66,100,9.22,overcast clouds
656,Mana,GF,5.6592,-53.7767,83.19,66,62,11.83,broken clouds
657,Gorgan,IR,36.8387,54.4348,60.76,94,100,4.61,overcast clouds
658,Ilebo,CD,-4.3167,20.5833,71.74,96,76,0.98,broken clouds
659,Chalons-En-Champagne,FR,48.9539,4.3672,60.03,73,100,7.11,overcast clouds
660,Stornoway,GB,58.2093,-6.3865,53.92,80,40,10.36,scattered clouds
661,Lenger,KZ,42.183,69.8839,71.04,56,76,4.43,broken clouds
662,Lake Havasu City,US,34.4839,-114.3224,86.99,13,0,6.91,clear sky
663,Kizema,RU,61.113,44.8302,30.11,89,65,3.94,broken clouds
664,Itarema,BR,-2.9248,-39.9167,84.76,70,87,12.93,overcast clouds
665,Yarada,IN,17.65,83.2667,86.32,84,40,2.3,scattered clouds
666,Lubyany,RU,56.0378,51.4,35.96,63,31,4.65,scattered clouds
667,Lewistown,US,40.5992,-77.5714,57.72,85,40,0.0,light rain
668,Jardim,BR,-21.4803,-56.1381,91.45,27,17,5.73,few clouds
669,Manitouwadge,CA,49.1215,-85.8403,42.62,89,100,11.03,overcast clouds
670,Dongobesh,TZ,-4.0667,35.3833,57.51,93,62,8.52,broken clouds
671,Yar-Sale,RU,66.8333,70.8333,11.61,90,25,7.23,scattered clouds
672,Darhan,MN,49.4867,105.9228,58.03,31,99,4.88,overcast clouds
673,Berdigestyakh,RU,62.0989,126.6992,32.86,87,100,9.66,overcast clouds
674,Marawi,PH,7.9986,124.2928,69.55,95,94,0.69,overcast clouds
675,Nalut,LY,30.3333,10.85,63.97,49,67,17.45,broken clouds
676,Newberry,US,34.2746,-81.6187,81.86,62,45,9.8,scattered clouds
677,Saint-Pierre,RE,-21.3393,55.4781,76.68,78,0,3.44,clear sky
678,Grindavik,IS,63.8424,-22.4338,43.27,61,0,12.66,clear sky
